[
  {
    "id": "torfabryketny",
    "title": "Лидский торфобрикетный завод",
    "description": "<p>Предприятие в Лидском районе, которое производит топливные брикеты из торфа. Такая продукция используется для отопления и в энергетике. Завод имеет значение для использования местных природных ресурсов.</p>",
    "image": "../assets/images/torfabryketny.jpg",
    "lat": 53.886742,
    "lng": 25.416148
  },
  {
    "id": "maloczny-zavod",
    "title": "Молочный завод «MiLida»",
    "description": "<p>Это одно из крупнейших пищевых предприятий в Лиде. Комбинат занимается переработкой молока и производит сгущённое и сухое молоко, масло и другие молочные продукты. Предприятие сотрудничает с местными сельскохозяйственными хозяйствами и поставляет свою продукцию как на внутренний рынок, так и на экспорт.</p>",
    "image": "../assets/images/maloczny-zavod.jpg",
    "lat": 53.871183,
    "lng": 25.314976
  },
  {
    "id": "lidselmash",
    "title": "Лидсельмаш",
    "description": "<p>Это машиностроительный завод, специализирующийся на производстве сельскохозяйственной техники и оборудования для животноводства и растениеводства. Продукция предприятия используется в сельском хозяйстве Беларуси и других стран. Завод имеет долгую историю и является важным промышленным объектом города.</p>",
    "image": "../assets/images/lidselmash.jpg",
    "lat": 53.902585,
    "lng": 25.298678
  },
  {
    "id": "konus",
    "title": "Завод горячего цинкования «Конус»",
    "description": "<p>Предприятие занимается горячим цинкованием металлоконструкций. Такая обработка защищает металл от коррозии и увеличивает срок его службы. Услуги завода используются в строительстве, промышленности и других сферах, где необходимы надёжные металлические конструкции.</p>",
    "image": "../assets/images/konus.jpg",
    "lat": 53.863790,
    "lng": 25.268880
  },
  {
    "id": "liplast",
    "title": "Липласт",
    "description": "<p>Предприятие специализируется на производстве пластиковых и полимерных изделий. Оно выпускает упаковку, технические детали и другие продукты, которые используются в различных отраслях промышленности и в повседневной жизни.</p>",
    "image": "../assets/images/liplast.jpg",
    "lat": 53.903788,
    "lng": 25.324376
  },
  {
    "id": "lakafarba",
    "title": "Лакокраска",
    "description": "<p>Крупное химическое предприятие, выпускающее краски, лаки и другие покрытия. Его продукция используется в строительстве, промышленности и ремонте. Завод является одним из крупнейших производителей лакокрасочных материалов в Беларуси.</p>",
    "image": "../assets/images/lakafarba.jpg",
    "lat": 53.906953,
    "lng": 25.316834
  }
]
