[
  {
    "id": "torfabryketny",
    "title": "Торфабрыкетны завод 'Лідскі'",
    "description": "<p>Прадпрыемства ў Лідскім раёне, якое вырабляе паліўныя брыкеты з торфу. Такая прадукцыя выкарыстоўваецца для ацяплення і ў энергетыцы. Завод мае значэнне для выкарыстання мясцовых прыродных рэсурсаў.</p>",
    "image": "../assets/images/torfabryketny.jpg",
    "lat": 53.8701,
    "lng": 25.3412
  },
  {
    "id": "maloczny-zavod",
    "title": "Малочны завод 'MiLida'",
    "description": "<p>Гэта адно з найбуйнейшых харчовых прадпрыемстваў у Лідзе. Камбінат займаецца перапрацоўкай малака і вырабляе згушчанае і сухое малако, масла і іншыя малочныя прадукты. Прадпрыемства супрацоўнічае з мясцовымі сельскагаспадарчымі гаспадаркамі і пастаўляе сваю прадукцыю як на ўнутраны рынак, так і на экспарт.</p>",
    "image": "../assets/images/maloczny-zavod.jpg",
    "lat": 53.8743,
    "lng": 25.3185
  },
  {
    "id": "lidselmash",
    "title": "Лідсельмаш",
    "description": "<p>Гэта машынабудаўнічы завод, які спецыялізуецца на вытворчасці сельскагаспадарчай тэхнікі і абсталявання для жывёлагадоўлі і раслінаводства. Прадукцыя прадпрыемства выкарыстоўваецца ў сельскай гаспадарцы Беларусі і іншых краін. Завод мае доўгую гісторыю і з’яўляецца важным прамысловым аб’ектам горада.</p>",
    "image": "../assets/images/lidselmash.jpg",
    "lat": 53.8821,
    "lng": 25.3301
  },
  {
    "id": "konus",
    "title": "Завод гарачага цынкавання 'Конус'",
    "description": "<p>Прадпрыемства займаецца гарачым цынкаваннем металаканструкцый. Такая апрацоўка абараняе метал ад карозіі і павялічвае тэрмін яго службы. Паслугі завода выкарыстоўваюцца ў будаўніцтве, прамысловасці і іншых сферах, дзе патрэбны надзейныя металічныя канструкцыі.</p>",
    "image": "../assets/images/konus.jpg",
    "lat": 53.8658,
    "lng": 25.335
  },
  {
    "id": "liplast",
    "title": "Ліпласт",
    "description": "<p>Прадпрыемства спецыялізуецца на вытворчасці пластыкавых і палімерных вырабаў. Яно выпускае ўпакоўку, тэхнічныя дэталі і іншыя прадукты, якія выкарыстоўваюцца ў розных галінах прамысловасці і ў паўсядзённым жыцці.</p>",
    "image": "../assets/images/liplast.jpg",
    "lat": 53.869,
    "lng": 25.327
  },
  {
    "id": "lakafarba",
    "title": "Лакафарба",
    "description": "<p>Вялікае хімічнае прадпрыемства, якое выпускае фарбы, лакі і іншыя пакрыцці. Яго прадукцыя выкарыстоўваецца ў будаўніцтве, прамысловасці і рамонце. Завод з’яўляецца адным з найбуйнейшых вытворцаў лакафарбавых матэрыялаў у Беларусі.</p>",
    "image": "../assets/images/lakafarba.jpg",
    "lat": 53.873,
    "lng": 25.345
  }
]
